{
  "cities": [
    {
      "cityName": "Lisbon",
      "country": "Portugal",
      "emoji": "https://upload.wikimedia.org/wikipedia/commons/5/5c/Flag_of_Portugal.svg",
      "date": "2023-10-31T15:59:59.138Z",
      "notes": "My favorite city so far!",
      "position": {
        "lat": 38.727881642324164,
        "lng": -9.140900099907554
      },
      "id": "73930385"
    },
    {
      "cityName": "Madrid",
      "country": "Spain",
      "emoji": "https://upload.wikimedia.org/wikipedia/commons/9/9a/Flag_of_Spain.svg",
      "date": "2024-07-15T08:22:53.976Z",
      "notes": "",
      "position": {
        "lat": 40.46635901755316,
        "lng": -3.7133789062500004
      },
      "id": "17806751"
    },
    {
      "cityName": "Berlin",
      "country": "Germany",
      "emoji": "https://upload.wikimedia.org/wikipedia/commons/b/ba/Flag_of_Germany.svg",
      "date": "2025-02-12T09:24:11.863Z",
      "notes": "Amazing ðŸ˜ƒ",
      "position": {
        "lat": 52.53586782505711,
        "lng": 13.376933665713324
      },
      "id": "98443197"
    },
    {
      "id": "a611",
      "cityName": "Borough of Thurrock",
      "country": "United Kingdom of Great Britain and Northern Ireland (the)",
      "emoji": "ðŸ‡¬ðŸ‡§",
      "date": "2025-02-28T01:10:35.475Z",
      "notes": "cvvc",
      "position": {
        "lat": "51.46907847342635",
        "lng": "0.308909701645872"
      }
    },
    {
      "id": "533c",
      "cityName": "Juncalas",
      "country": "France",
      "emoji": "ðŸ‡«ðŸ‡·",
      "date": "2025-02-28T01:17:50.686Z",
      "notes": "  bb",
      "position": {
        "lat": "43.05604502981287",
        "lng": "0.0019975122562820857"
      }
    }
  ]
}